[{
 "title":"Chihuahua", 
 "valor":"23.01",
 "Latitude":28.635279999999998,
 "Longitude":-106.08888999999999
 },{
 "title":"Nuevo León", 
 "valor":"21.83",
 "Latitude":25.6714,
 "Longitude":-100.309
 },{
 "title":"Ciudad de México", 
 "valor":"25.21",
 "Latitude":19.42847,
 "Longitude":-99.12765999999999
 },{
 "title":"Coahuila", 
 "valor":"19.72",
 "Latitude":15.7611,
 "Longitude":-92.5947
 },{
 "title":"Sinaloa", 
 "valor":"19.72",
 "Latitude":27.2722,
 "Longitude":-101.9458
 },{
 "title":"Baja California Sur", 
 "valor":"24.12",
 "Latitude":24.144370000000002,
 "Longitude":-110.3005
 },{
 "title":"Tamaulipas", 
 "valor":"20.02",
 "Latitude":23.3557,
 "Longitude":-99.1845
 },{
 "title":"Baja California", 
 "valor":"23.53",
 "Latitude":25.7133,
 "Longitude":25.7133
 },{
 "title":"Aguascalientes", 
 "valor":"19.37",
 "Latitude":21.8818,
 "Longitude":-102.291
 },{
 "title":"Jalisco", 
 "valor":"21.9",
 "Latitude":25.4375,
 "Longitude":-111.9028
 }]
